{"version": 0.6, "generator": "Overpass API 0.7.62.4 2390de5a", "osm3s": {"timestamp_osm_base": "2025-01-30T11:25:58Z", "copyright": "The data included in this document is from www.openstreetmap.org. The data is made available under ODbL."}, "elements": [{"type": "node", "id": 59838615, "lat": 48.1936955, "lon": 16.3704805, "tags": {"destination:carriages:forward": "Taubstummengasse|none|Tilgnerstra\u00dfe|none|none|Mayerhofgasse", "exit:carriages:forward": "escalator;stairs|no|lift|no|no|escalator;stairs", "indoor": "yes", "level": "-2", "location": "underground", "name": "Taubstummengasse", "network": "VOR", "public_transport": "stop_position", "railway": "stop", "ref": "1", "side": "left", "subway": "yes", "uic_name": "Wien Taubstummengasse (U1)", "wheelchair": "yes"}}, {"type": "node", "id": 60825162, "lat": 48.1859663, "lon": 16.3750995, "tags": {"exit:carriages:forward": "no|lift;stairs;escalator|no|no|no|no", "indoor": "yes", "level": "-1", "location": "underground", "name": "Wien Hauptbahnhof", "network": "VOR", "old_name": "Wien S\u00fcdtiroler Platz", "operator": "\u00d6BB-Infrastruktur AG", "public_transport": "stop_position", "railway": "stop", "railway:platform_height": "55", "railway:platform_length": "210", "ref": "2", "short_name": "Wien Hbf", "side": "right", "train": "yes", "wheelchair": "yes"}}, {"type": "node", "id": 119403514, "lat": 48.2006158, "lon": 16.3694933, "tags": {"bus": "yes", "departures_board": "timetable", "highway": "bus_stop", "name": "Karlsplatz", "network": "VOR", "network:wikidata": "Q2516485", "public_transport": "stop_position", "tram": "yes", "uic_name": "Wien Karlsplatz (Lothringerstra\u00dfe)"}}, {"type": "node", "id": 119403523, "lat": 48.2003446, "lon": 16.3696581, "tags": {"bus": "yes", "capacity:tram": "1", "highway": "bus_stop", "local_ref": "J", "name": "Karlsplatz", "network": "VOR", "network:wikidata": "Q2516485", "public_transport": "stop_position", "shelter": "yes", "tram": "yes", "uic_name": "Wien Karlsplatz (Resselpark)", "wheelchair": "yes"}}, {"type": "node", "id": 271334053, "lat": 48.2004257, "lon": 16.3695828, "tags": {"capacity:tram": "2", "light_rail": "yes", "local_ref": "H", "name": "Karlsplatz", "network": "VOR", "network:wikidata": "Q2516485", "operator": "Wiener Linien", "operator:short": "WL", "operator:wikidata": "Q668849", "public_transport": "stop_position", "railway": "tram_stop", "tram": "yes", "uic_name": "Wien Karlsplatz (Resselpark)", "wheelchair": "yes"}}, {"type": "node", "id": 290917346, "lat": 48.18993, "lon": 16.3636253, "tags": {"bus": "yes", "highway": "bus_stop", "name": "Leibenfrostgasse", "network": "VOR", "network:wikidata": "Q2516485", "public_transport": "stop_position"}}, {"type": "node", "id": 290917858, "lat": 48.1898072, "lon": 16.3656038, "tags": {"bench": "no", "bus": "yes", "highway": "bus_stop", "name": "Johann-Strau\u00df-Gasse", "network": "VOR", "network:wikidata": "Q2516485", "public_transport": "stop_position", "shelter": "no"}}, {"type": "node", "id": 290917965, "lat": 48.1904524, "lon": 16.3660852, "tags": {"bus": "yes", "highway": "bus_stop", "name": "Johann-Strau\u00df-Gasse", "network": "VOR", "network:wikidata": "Q2516485", "public_transport": "stop_position"}}, {"type": "node", "id": 327740820, "lat": 48.1886172, "lon": 16.3679148, "tags": {"bus": "yes", "highway": "bus_stop", "name": "Rainergasse", "network": "VOR", "network:wikidata": "Q2516485", "public_transport": "stop_position", "stop_position": "ExtendedFootway"}}, {"type": "node", "id": 327741233, "lat": 48.1900072, "lon": 16.3716058, "tags": {"bus": "yes", "highway": "bus_stop", "multistop": "yes", "name": "Belvederegasse", "network": "VOR", "network:wikidata": "Q2516485", "public_transport": "stop_position", "stop_position": "BusBay", "wheelchair": "yes"}}, {"type": "node", "id": 327741242, "lat": 48.1879618, "lon": 16.3731436, "tags": {"bus": "yes", "highway": "bus_stop", "name": "Kolschitzkygasse", "network": "VOR", "network:wikidata": "Q2516485", "public_transport": "stop_position", "wheelchair": "yes"}}, {"type": "node", "id": 327741253, "lat": 48.1885468, "lon": 16.3768655, "tags": {"bus": "yes", "highway": "bus_stop", "name": "Argentinierstra\u00dfe", "network": "VOR", "network:wikidata": "Q2516485", "public_transport": "stop_position", "wheelchair": "yes"}}, {"type": "node", "id": 327741272, "lat": 48.1879696, "lon": 16.3688192, "tags": {"bus": "yes", "highway": "bus_stop", "name": "Rainergasse", "network": "VOR", "network:wikidata": "Q2516485", "public_transport": "stop_position", "stop_position": "ExtendedFootway"}}, {"type": "node", "id": 527899111, "lat": 48.1852673, "lon": 16.3736392, "tags": {"bus": "yes", "highway": "bus_stop", "local_ref": "R", "name": "Hauptbahnhof", "network": "VOR", "network:wikidata": "Q2516485", "network:wikipedia": "de:Verkehrsverbund Ost-Region", "public_transport": "stop_position", "uic_name": "Wien Hauptbahnhof"}}, {"type": "node", "id": 575317691, "lat": 48.1861559, "lon": 16.3755194, "tags": {"bus": "yes", "highway": "bus_stop", "local_ref": "G", "name": "Hauptbahnhof", "network": "VOR", "network:wikidata": "Q2516485", "public_transport": "stop_position", "wheelchair": "yes"}}, {"type": "node", "id": 915773059, "lat": 48.1853299, "lon": 16.373075, "tags": {"alt_name:en": "Vienna Central Station", "bus": "yes", "highway": "bus_stop", "name": "Wien Hauptbahnhof", "name:en": "Vienna Main Station", "public_transport": "stop_position", "uic_name": "Wien, Hbf. (International Busterminal)"}}, {"type": "node", "id": 1008421989, "lat": 48.1860444, "lon": 16.3746109, "tags": {"capacity:tram": "1", "local_ref": "F", "name": "Hauptbahnhof", "network": "VOR", "network:wikidata": "Q2516485", "operator": "Wiener Linien", "operator:short": "WL", "operator:wikidata": "Q668849", "public_transport": "stop_position", "railway": "tram_stop", "tram": "yes", "wheelchair": "yes"}}, {"type": "node", "id": 1010572279, "lat": 48.1871257, "lon": 16.3736239, "tags": {"destination:carriages:forward": "Kolschitzkygasse|none|none|none|none|S\u00fcdtiroller Platz;Hauptbahnhof", "destination:symbol:carriages:forward": "bus|none|none|none|none|bus;tram;S-bahn", "exit:carriages:forward": "stairs|no|no|no|no|escalator;lift;stairs", "indoor": "yes", "level": "-3", "location": "underground", "name": "S\u00fcdtiroler\u202fPlatz-Hauptbahnhof", "network": "VOR", "public_transport": "stop_position", "railway": "stop", "ref": "1", "side": "left", "subway": "yes", "uic_name": "Wien Hbf (U1)", "wheelchair": "yes"}}, {"type": "node", "id": 1369575543, "lat": 48.1900108, "lon": 16.3623552, "tags": {"bus": "yes", "highway": "bus_stop", "name": "Leibenfrostgasse", "network": "VOR", "network:wikidata": "Q2516485", "public_transport": "stop_position"}}, {"type": "node", "id": 1370594627, "lat": 48.188057, "lon": 16.3728035, "tags": {"bus": "yes", "highway": "bus_stop", "name": "Kolschitzkygasse", "network": "VOR", "network:wikidata": "Q2516485", "public_transport": "stop_position", "wheelchair": "yes"}}, {"type": "node", "id": 1600416423, "lat": 48.1878107, "lon": 16.3803867, "tags": {"capacity:tram": "2", "name": "Quartier Belvedere", "network": "VOR", "network:wikidata": "Q2516485", "operator": "Wiener Linien", "operator:short": "WL", "operator:wikidata": "Q668849", "public_transport": "stop_position", "railway": "tram_stop", "ref": "1346", "tram": "yes", "wheelchair": "yes"}}, {"type": "node", "id": 1600416485, "lat": 48.1877262, "lon": 16.3799042, "tags": {"capacity:tram": "2", "name": "Quartier Belvedere", "network": "VOR", "network:wikidata": "Q2516485", "operator": "Wiener Linien", "operator:short": "WL", "operator:wikidata": "Q668849", "public_transport": "stop_position", "railway": "tram_stop", "ref": "1346", "tactile_paving": "yes", "tram": "yes", "wheelchair": "yes"}}, {"type": "node", "id": 1617706059, "lat": 48.197148, "lon": 16.3754667, "tags": {"capacity:tram": "1", "name": "Gu\u00dfhausstra\u00dfe", "network": "VOR", "network:wikidata": "Q2516485", "operator": "Wiener Linien", "operator:short": "WL", "operator:wikidata": "Q668849", "public_transport": "stop_position", "railway": "tram_stop", "tram": "yes"}}, {"type": "node", "id": 1617706061, "lat": 48.1947181, "lon": 16.3769656, "tags": {"capacity:tram": "1", "name": "Pl\u00f6\u00dflgasse", "network": "VOR", "network:wikidata": "Q2516485", "operator": "Wiener Linien", "operator:short": "WL", "operator:wikidata": "Q668849", "public_transport": "stop_position", "railway": "tram_stop", "ref": "1025", "tram": "yes"}}, {"type": "node", "id": 1617706064, "lat": 48.1921302, "lon": 16.3790076, "tags": {"capacity:tram": "1", "name": "Schloss Belvedere", "network": "VOR", "network:wikidata": "Q2516485", "old_name": "Schlo\u00df Belvedere", "operator": "Wiener Linien", "operator:short": "WL", "operator:wikidata": "Q668849", "public_transport": "stop_position", "railway": "tram_stop", "tram": "yes", "wheelchair": "yes"}}, {"type": "node", "id": 1625876777, "lat": 48.1859161, "lon": 16.3738722, "tags": {"capacity:tram": "1", "funicular": "no", "indoor": "yes", "level": "-1", "local_ref": "J", "location": "underground", "name": "Hauptbahnhof", "network": "VOR", "network:wikidata": "Q2516485", "operator": "Wiener Linien", "operator:short": "WL", "operator:wikidata": "Q668849", "public_transport": "stop_position", "railway": "tram_stop", "ref": "1349", "tactile_paving": "yes", "tram": "yes", "wheelchair": "yes"}}, {"type": "node", "id": 1630527822, "lat": 48.1843111, "lon": 16.3685804, "tags": {"capacity:tram": "2", "name": "Blechturmgasse", "network": "VOR", "network:wikidata": "Q2516485", "operator": "Wiener Linien", "operator:short": "WL", "operator:wikidata": "Q668849", "public_transport": "stop_position", "railway": "tram_stop", "ref": "145", "tactile_paving": "yes", "tram": "yes", "wheelchair": "yes"}}, {"type": "node", "id": 1918483229, "lat": 48.1859975, "lon": 16.3750753, "tags": {"exit:carriages:backward": "no|lift;stairs;escalator|no|no|no|no", "indoor": "yes", "level": "-1", "location": "underground", "name": "Wien Hauptbahnhof", "network": "VOR", "old_name": "Wien S\u00fcdtiroler Platz", "operator": "\u00d6BB-Infrastruktur AG", "public_transport": "stop_position", "railway": "stop", "railway:platform_height": "55", "railway:platform_length": "210", "ref": "1", "short_name": "Wien Hbf", "side": "left", "train": "yes", "wheelchair": "yes"}}, {"type": "node", "id": 1921934731, "lat": 48.1860103, "lon": 16.3743926, "tags": {"capacity:tram": "1", "local_ref": "E", "name": "Hauptbahnhof", "network": "VOR", "network:wikidata": "Q2516485", "operator": "Wiener Linien", "operator:short": "WL", "operator:wikidata": "Q668849", "public_transport": "stop_position", "railway": "tram_stop", "tram": "yes", "wheelchair": "yes"}}, {"type": "node", "id": 2028498703, "lat": 48.2003294, "lon": 16.3695549, "tags": {"level": "-2", "name": "Karlsplatz", "network": "VOR", "public_transport": "stop_position", "railway": "stop", "ref": "1", "subway": "yes", "uic_name": "Wien Karlsplatz (U4)", "wheelchair": "yes"}}, {"type": "node", "id": 2049552768, "lat": 48.1984255, "lon": 16.3675883, "tags": {"capacity:tram": "2", "light_rail": "yes", "local_ref": "K", "name": "Resselgasse", "network": "VOR", "network:wikidata": "Q2516485", "operator": "Wiener Linien", "operator:short": "WL", "operator:wikidata": "Q668849", "public_transport": "stop_position", "railway": "tram_stop", "tram": "yes", "wheelchair": "yes"}}, {"type": "node", "id": 2049552776, "lat": 48.1990573, "lon": 16.3678598, "tags": {"capacity:tram": "2", "light_rail": "yes", "local_ref": "K", "name": "Resselgasse", "network": "VOR", "network:wikidata": "Q2516485", "operator": "Wiener Linien", "operator:short": "WL", "operator:wikidata": "Q668849", "public_transport": "stop_position", "railway": "tram_stop", "tram": "yes", "wheelchair": "yes"}}, {"type": "node", "id": 2056839870, "lat": 48.1885754, "lon": 16.3787482, "tags": {"bus": "yes", "highway": "bus_stop", "name": "Mommsengasse", "network": "VOR", "network:wikidata": "Q2516485", "public_transport": "stop_position"}}, {"type": "node", "id": 2106209115, "lat": 48.1874584, "lon": 16.3791296, "tags": {"bus": "yes", "highway": "bus_stop", "name": "Karl-Popper-Stra\u00dfe", "network": "VOR", "network:wikidata": "Q2516485", "public_transport": "stop_position", "wheelchair": "yes"}}, {"type": "node", "id": 2206792110, "lat": 48.1859426, "lon": 16.3738604, "tags": {"capacity:tram": "1", "indoor": "yes", "level": "-1", "local_ref": "H", "location": "underground", "name": "Hauptbahnhof", "network": "VOR", "network:wikidata": "Q2516485", "operator": "Wiener Linien", "operator:short": "WL", "operator:wikidata": "Q668849", "public_transport": "stop_position", "railway": "tram_stop", "ref": "1349", "tram": "yes", "wheelchair": "yes"}}, {"type": "node", "id": 2206818030, "lat": 48.1893992, "lon": 16.3656463, "tags": {"capacity:tram": "2", "light_rail": "yes", "name": "Johann-Strau\u00df-Gasse", "network": "VOR", "network:wikidata": "Q2516485", "operator": "Wiener Linien", "operator:short": "WL", "operator:wikidata": "Q668849", "public_transport": "stop_position", "railway": "tram_stop", "tram": "yes", "wheelchair": "limited"}}, {"type": "node", "id": 2208707408, "lat": 48.190513, "lon": 16.3664731, "tags": {"bus": "yes", "highway": "bus_stop", "name": "Johann-Strau\u00df-Gasse", "network": "VOR", "network:wikidata": "Q2516485", "public_transport": "stop_position"}}, {"type": "node", "id": 2297169712, "lat": 48.1952255, "lon": 16.3670153, "tags": {"capacity:tram": "1", "light_rail": "yes", "name": "Paulanergasse", "network": "VOR", "network:wikidata": "Q2516485", "operator": "Wiener Linien", "operator:short": "WL", "operator:wikidata": "Q668849", "public_transport": "stop_position", "railway": "tram_stop", "tram": "yes"}}, {"type": "node", "id": 2297169719, "lat": 48.1926255, "lon": 16.3669921, "tags": {"capacity:tram": "1", "highway": "bus_stop", "light_rail": "yes", "name": "Mayerhofgasse", "network": "VOR", "network:wikidata": "Q2516485", "operator": "Wiener Linien", "operator:short": "WL", "operator:wikidata": "Q668849", "public_transport": "stop_position", "railway": "tram_stop", "tram": "yes", "wheelchair": "yes"}}, {"type": "node", "id": 2297169722, "lat": 48.1924188, "lon": 16.3669151, "tags": {"capacity:tram": "1", "highway": "bus_stop", "light_rail": "yes", "name": "Mayerhofgasse", "network": "VOR", "network:wikidata": "Q2516485", "operator": "Wiener Linien", "operator:short": "WL", "operator:wikidata": "Q668849", "public_transport": "stop_position", "railway": "tram_stop", "tram": "yes", "wheelchair": "yes"}}, {"type": "node", "id": 2297169772, "lat": 48.1956257, "lon": 16.3670881, "tags": {"bus": "yes", "capacity:tram": "1", "departures_board": "realtime", "highway": "bus_stop", "light_rail": "yes", "name": "Paulanergasse", "network": "VOR", "network:wikidata": "Q2516485", "operator": "Wiener Linien", "operator:short": "WL", "operator:wikidata": "Q668849", "public_transport": "stop_position", "railway": "tram_stop", "tram": "yes"}}, {"type": "node", "id": 2503413064, "lat": 48.1905154, "lon": 16.3664535, "tags": {"capacity:tram": "2", "light_rail": "yes", "name": "Johann-Strau\u00df-Gasse", "network": "VOR", "network:wikidata": "Q2516485", "operator": "Wiener Linien", "operator:short": "WL", "operator:wikidata": "Q668849", "public_transport": "stop_position", "railway": "tram_stop", "tram": "yes", "wheelchair": "yes"}}, {"type": "node", "id": 2510958476, "lat": 48.1995741, "lon": 16.3658593, "tags": {"bus": "yes", "name": "B\u00e4renm\u00fchldurchgang", "network": "VOR", "public_transport": "stop_position", "wheelchair": "yes"}}, {"type": "node", "id": 2671750970, "lat": 48.1870832, "lon": 16.3732695, "tags": {"destination:carriages:forward": "S\u00fcdtiroller Platz;Hauptbahnhof|none|none|none|none|Kolschitzkygasse", "destination:symbol:carriages:forward": "bus;tram;S-bahn|none|none|none|none|bus", "exit:carriages:forward": "escalator;lift;stairs|no|no|no|no|stairs", "indoor": "yes", "level": "-3", "location": "underground", "name": "S\u00fcdtiroler\u202fPlatz-Hauptbahnhof", "network": "VOR", "public_transport": "stop_position", "railway": "stop", "ref": "2", "side": "left", "subway": "yes", "uic_name": "Wien Hbf (U1)", "wheelchair": "yes"}}, {"type": "node", "id": 2671750971, "lat": 48.1936787, "lon": 16.370356, "tags": {"destination:carriages:forward": "Mayerhofgasse|none|none|Tilgnerstra\u00dfe|none|Taubstummengasse", "exit:carriages:forward": "escalator;stairs|no|no|lift|no|escalator;stairs", "indoor": "yes", "level": "-2", "location": "underground", "name": "Taubstummengasse", "network": "VOR", "public_transport": "stop_position", "railway": "stop", "ref": "2", "side": "left", "subway": "yes", "uic_name": "Wien Taubstummengasse (U1)", "wheelchair": "yes"}}, {"type": "node", "id": 3420688827, "lat": 48.1951796, "lon": 16.3632324, "tags": {"bench": "yes", "bus": "yes", "covered": "yes", "name": "Pre\u00dfgasse", "network": "VOR", "public_transport": "stop_position", "shelter": "yes"}}, {"type": "node", "id": 3450724331, "lat": 48.1858964, "lon": 16.3748364, "tags": {"bus": "yes", "highway": "bus_stop", "local_ref": "G", "name": "Hauptbahnhof", "network": "VOR", "network:wikidata": "Q2516485", "public_transport": "stop_position", "wheelchair": "yes"}}, {"type": "node", "id": 3584027175, "lat": 48.1996123, "lon": 16.3667226, "tags": {"bus": "yes", "local_ref": "L", "name": "B\u00e4renm\u00fchldurchgang", "network": "VOR", "public_transport": "stop_position", "wheelchair": "yes"}}, {"type": "node", "id": 3584027181, "lat": 48.1972564, "lon": 16.361993, "tags": {"bus": "yes", "name": "Pre\u00dfgasse", "network": "VOR", "public_transport": "stop_position"}}, {"type": "node", "id": 3584027184, "lat": 48.1972654, "lon": 16.3657686, "tags": {"bus": "yes", "highway": "bus_stop", "name": "Schleifm\u00fchlgasse", "network": "VOR", "network:wikidata": "Q2516485", "public_transport": "stop_position"}}, {"type": "node", "id": 3584027185, "lat": 48.1950018, "lon": 16.3610944, "tags": {"bus": "yes", "name": "Sch\u00f6nbrunner Stra\u00dfe/Kettenbr\u00fcckengasse", "network": "VOR", "public_transport": "stop_position"}}, {"type": "node", "id": 3627059030, "lat": 48.1892816, "lon": 16.3656507, "tags": {"bus": "yes", "highway": "bus_stop", "name": "Johann-Strau\u00df-Gasse", "network": "VOR", "network:wikidata": "Q2516485", "public_transport": "stop_position", "shelter": "no", "website": "https://www.wienerlinien.at/", "wheelchair": "yes"}}, {"type": "node", "id": 3632208587, "lat": 48.1898842, "lon": 16.3720479, "tags": {"bus": "yes", "name": "Belvederegasse", "network": "VOR", "public_transport": "stop_position"}}, {"type": "node", "id": 3632209805, "lat": 48.1948488, "lon": 16.3697904, "tags": {"bus": "yes", "highway": "bus_stop", "name": "Taubstummengasse", "network": "VOR", "network:wikidata": "Q2516485", "public_transport": "stop_position"}}, {"type": "node", "id": 3633551529, "lat": 48.1852495, "lon": 16.3734598, "tags": {"bus": "yes", "name": "Hauptbahnhof", "network": "VOR", "network:wikidata": "Q2516485", "network:wikipedia": "de:Verkehrsverbund Ost-Region", "note": "S", "public_transport": "stop_position", "uic_name": "Wien Hauptbahnhof"}}, {"type": "node", "id": 3993342688, "lat": 48.2004564, "lon": 16.3696228, "tags": {"level": "-2", "name": "Karlsplatz", "network": "VOR", "public_transport": "stop_position", "railway": "stop", "ref": "2", "subway": "yes", "uic_name": "Wien Karlsplatz (U4)", "wheelchair": "yes"}}, {"type": "node", "id": 4191252662, "lat": 48.1947435, "lon": 16.3697744, "tags": {"bus": "yes", "highway": "bus_stop", "name": "Taubstummengasse", "network": "VOR", "network:wikidata": "Q2516485", "public_transport": "stop_position"}}, {"type": "node", "id": 4191590238, "lat": 48.1852227, "lon": 16.3719432, "tags": {"alt_name:en": "Vienna Central Station", "bus": "yes", "highway": "bus_stop", "local_ref": "C3", "name": "Wien Hauptbahnhof", "name:en": "Vienna Main Station", "public_transport": "stop_position", "uic_name": "Wien, Hbf. (International Busterminal)"}}, {"type": "node", "id": 4191590239, "lat": 48.1849039, "lon": 16.3712222, "tags": {"alt_name:en": "Vienna Central Station", "bus": "yes", "highway": "bus_stop", "local_ref": "B8", "name": "Wien Hauptbahnhof", "name:en": "Vienna Main Station", "public_transport": "stop_position", "uic_name": "Wien, Hbf. (International Busterminal)"}}, {"type": "node", "id": 4191590240, "lat": 48.185333, "lon": 16.3722873, "tags": {"alt_name:en": "Vienna Central Station", "bus": "yes", "highway": "bus_stop", "local_ref": "C2", "name": "Wien Hauptbahnhof", "name:en": "Vienna Main Station", "public_transport": "stop_position", "uic_name": "Wien, Hbf. (International Busterminal)"}}, {"type": "node", "id": 4191590241, "lat": 48.185451, "lon": 16.3726554, "tags": {"alt_name:en": "Vienna Central Station", "bus": "yes", "highway": "bus_stop", "local_ref": "C1", "name": "Wien Hauptbahnhof", "name:en": "Vienna Main Station", "public_transport": "stop_position", "uic_name": "Wien, Hbf. (International Busterminal)"}}, {"type": "node", "id": 4191590242, "lat": 48.1847433, "lon": 16.371244, "tags": {"alt_name:en": "Vienna Central Station", "bus": "yes", "highway": "bus_stop", "local_ref": "A8", "name": "Wien Hauptbahnhof", "name:en": "Vienna Main Station", "public_transport": "stop_position", "uic_name": "Wien, Hbf. (International Busterminal)"}}, {"type": "node", "id": 4191590243, "lat": 48.1854042, "lon": 16.3728636, "tags": {"alt_name:en": "Vienna Central Station", "bus": "yes", "highway": "bus_stop", "local_ref": "B1", "name": "Wien Hauptbahnhof", "name:en": "Vienna Main Station", "public_transport": "stop_position", "uic_name": "Wien, Hbf. (International Busterminal)"}}, {"type": "node", "id": 4191590244, "lat": 48.1848219, "lon": 16.3714894, "tags": {"alt_name:en": "Vienna Central Station", "bus": "yes", "highway": "bus_stop", "local_ref": "A7", "name": "Wien Hauptbahnhof", "name:en": "Vienna Main Station", "public_transport": "stop_position", "uic_name": "Wien, Hbf. (International Busterminal)"}}, {"type": "node", "id": 4191590245, "lat": 48.1853361, "lon": 16.3726401, "tags": {"alt_name:en": "Vienna Central Station", "bus": "yes", "highway": "bus_stop", "local_ref": "B2", "name": "Wien Hauptbahnhof", "name:en": "Vienna Main Station", "public_transport": "stop_position", "uic_name": "Wien, Hbf. (International Busterminal)"}}, {"type": "node", "id": 4191590246, "lat": 48.1848918, "lon": 16.3717073, "tags": {"alt_name:en": "Vienna Central Station", "bus": "yes", "highway": "bus_stop", "local_ref": "A6", "name": "Wien Hauptbahnhof", "name:en": "Vienna Main Station", "public_transport": "stop_position", "uic_name": "Wien, Hbf. (International Busterminal)"}}, {"type": "node", "id": 4191590247, "lat": 48.1852671, "lon": 16.372414, "tags": {"alt_name:en": "Vienna Central Station", "bus": "yes", "highway": "bus_stop", "local_ref": "B3", "name": "Wien Hauptbahnhof", "name:en": "Vienna Main Station", "public_transport": "stop_position", "uic_name": "Wien, Hbf. (International Busterminal)"}}, {"type": "node", "id": 4191590248, "lat": 48.184966, "lon": 16.3719391, "tags": {"alt_name:en": "Vienna Central Station", "bus": "yes", "highway": "bus_stop", "local_ref": "A5", "name": "Wien Hauptbahnhof", "name:en": "Vienna Main Station", "public_transport": "stop_position", "uic_name": "Wien, Hbf. (International Busterminal)"}}, {"type": "node", "id": 4191590249, "lat": 48.1851878, "lon": 16.3721537, "tags": {"alt_name:en": "Vienna Central Station", "bus": "yes", "highway": "bus_stop", "local_ref": "B4", "name": "Wien Hauptbahnhof", "name:en": "Vienna Main Station", "public_transport": "stop_position", "uic_name": "Wien, Hbf. (International Busterminal)"}}, {"type": "node", "id": 4191590250, "lat": 48.1850439, "lon": 16.3721824, "tags": {"alt_name:en": "Vienna Central Station", "bus": "yes", "highway": "bus_stop", "local_ref": "A4", "name": "Wien Hauptbahnhof", "name:en": "Vienna Main Station", "public_transport": "stop_position", "uic_name": "Wien, Hbf. (International Busterminal)"}}, {"type": "node", "id": 4191590251, "lat": 48.1851239, "lon": 16.371944, "tags": {"alt_name:en": "Vienna Central Station", "bus": "yes", "highway": "bus_stop", "local_ref": "B5", "name": "Wien Hauptbahnhof", "name:en": "Vienna Main Station", "public_transport": "stop_position", "uic_name": "Wien, Hbf. (International Busterminal)"}}, {"type": "node", "id": 4191590252, "lat": 48.1851186, "lon": 16.3724154, "tags": {"alt_name:en": "Vienna Central Station", "bus": "yes", "highway": "bus_stop", "local_ref": "A3", "name": "Wien Hauptbahnhof", "name:en": "Vienna Main Station", "public_transport": "stop_position", "uic_name": "Wien, Hbf. (International Busterminal)"}}, {"type": "node", "id": 4191590253, "lat": 48.1849844, "lon": 16.3711999, "tags": {"alt_name:en": "Vienna Central Station", "bus": "yes", "highway": "bus_stop", "local_ref": "C5", "name": "Wien Hauptbahnhof", "name:en": "Vienna Main Station", "public_transport": "stop_position", "uic_name": "Wien, Hbf. (International Busterminal)"}}, {"type": "node", "id": 4191590254, "lat": 48.18505, "lon": 16.3717016, "tags": {"alt_name:en": "Vienna Central Station", "bus": "yes", "highway": "bus_stop", "local_ref": "B6", "name": "Wien Hauptbahnhof", "name:en": "Vienna Main Station", "public_transport": "stop_position", "uic_name": "Wien, Hbf. (International Busterminal)"}}, {"type": "node", "id": 4191590255, "lat": 48.1851905, "lon": 16.3726398, "tags": {"alt_name:en": "Vienna Central Station", "bus": "yes", "highway": "bus_stop", "local_ref": "A2", "name": "Wien Hauptbahnhof", "name:en": "Vienna Main Station", "public_transport": "stop_position", "uic_name": "Wien, Hbf. (International Busterminal)"}}, {"type": "node", "id": 4191590256, "lat": 48.185099, "lon": 16.3715575, "tags": {"alt_name:en": "Vienna Central Station", "bus": "yes", "highway": "bus_stop", "local_ref": "C4", "name": "Wien Hauptbahnhof", "name:en": "Vienna Main Station", "public_transport": "stop_position", "uic_name": "Wien, Hbf. (International Busterminal)"}}, {"type": "node", "id": 4191590257, "lat": 48.1849699, "lon": 16.3714389, "tags": {"alt_name:en": "Vienna Central Station", "bus": "yes", "highway": "bus_stop", "local_ref": "B7", "name": "Wien Hauptbahnhof", "name:en": "Vienna Main Station", "public_transport": "stop_position"}}, {"type": "node", "id": 4191590258, "lat": 48.1852645, "lon": 16.372871, "tags": {"alt_name:en": "Vienna Central Station", "bus": "yes", "highway": "bus_stop", "local_ref": "A1", "name": "Wien Hauptbahnhof", "name:en": "Vienna Main Station", "public_transport": "stop_position", "uic_name": "Wien, Hbf. (International Busterminal)"}}, {"type": "node", "id": 4687190826, "lat": 48.1925358, "lon": 16.3669357, "tags": {"bus": "yes", "highway": "bus_stop", "name": "Mayerhofgasse", "network": "VOR", "network:wikidata": "Q2516485", "public_transport": "stop_position"}}, {"type": "node", "id": 8935849374, "lat": 48.1976973, "lon": 16.3675931, "tags": {"bus": "yes", "name": "Resselgasse", "network": "VOR", "public_transport": "stop_position", "shelter": "no", "wheelchair": "yes"}}, {"type": "node", "id": 9530577241, "lat": 48.1854472, "lon": 16.3738264, "tags": {"bus": "yes", "name": "Hauptbahnhof", "network": "VOR", "network:wikidata": "Q2516485", "network:wikipedia": "de:Verkehrsverbund Ost-Region", "note": "U", "public_transport": "stop_position", "uic_name": "Wien Hauptbahnhof"}}, {"type": "node", "id": 10109781729, "lat": 48.2003192, "lon": 16.369822, "tags": {"capacity:tram": "1", "name": "Karlsplatz", "network": "VOR", "network:wikidata": "Q2516485", "operator": "Wiener Linien", "operator:short": "WL", "operator:wikidata": "Q668849", "public_transport": "stop_position", "railway": "tram_stop", "tram": "yes"}}, {"type": "node", "id": 11061664534, "lat": 48.1975347, "lon": 16.3752536, "tags": {"bus": "yes", "name": "Schwarzenbergplatz", "name:en": "Lower Belvedere", "network": "Vienna Sightseeing", "note": "Yellow route stop 35", "public_transport": "stop_position"}}, {"type": "node", "id": 11061784934, "lat": 48.1910598, "lon": 16.3796556, "tags": {"bus": "yes", "name": "Schloss Belvedere", "name:en": "Belvedere Palace", "network": "Vienna Sightseeing", "note": "Yellow route stop 34", "public_transport": "stop_position"}}]}